city,event,month,link,image,lat,lon
Kyoto,Philosopher's Path and quiet temple gardens,April,https://www.japan.travel/en/destinations/kansai/kyoto/,https://images.unsplash.com/photo-1493976040374-85c8e12f0c0e?auto=format&fit=crop&w=900&q=80,35.0116,135.7681
Matera,Cave streets and sunset viewpoints,May,https://www.italia.it/en/basilicata/matera,https://images.unsplash.com/photo-1523906834658-6e24ef2386f9?auto=format&fit=crop&w=900&q=80,40.6664,16.6043
Gjirokaster,Stone-house lanes and Ottoman hilltop castle,September,https://albania.al/destinations/gjirokastra/,https://images.unsplash.com/photo-1596464716127-f2a82984de30?auto=format&fit=crop&w=900&q=80,40.0758,20.1389
Chefchaouen,Blue alleys and mountain cafes,March,https://www.visitmorocco.com/en/travel/chefchaouen,https://images.unsplash.com/photo-1548018560-c7196548e84d?auto=format&fit=crop&w=900&q=80,35.1714,-5.2697
Luang Prabang,Waterfalls night market and riverside temples,November,https://www.tourismlaos.org/,https://images.unsplash.com/photo-1562523011-0f8f7d09f654?auto=format&fit=crop&w=900&q=80,19.8834,102.1347
Tbilisi,Sulfur baths wine bars and old balconies,October,https://georgia.travel/destinations/tbilisi,https://images.unsplash.com/photo-1565008576549-57569a49371d?auto=format&fit=crop&w=900&q=80,41.7151,44.8271
Valparaiso,Street-art hills and coastal funiculars,January,https://www.chile.travel/en/where-to-go/central-chile/valparaiso/,https://images.unsplash.com/photo-1581373449483-37449f962b6c?auto=format&fit=crop&w=900&q=80,-33.0472,-71.6127
Reykjavik,Northern lights road trip and hidden hot pools,February,https://www.visitreykjavik.is/,https://images.unsplash.com/photo-1504829857797-ddff29c27927?auto=format&fit=crop&w=900&q=80,64.1466,-21.9426
